City_ID,City,Country,Max Temp,Current Description,Lat,Lng,Hotel Name
10,Georgetown,MY,79.9,few clouds,5.4112,100.3354,Cititel Penang
15,Atuona,PF,78.55,clear sky,-9.8,-139.0333,Villa Enata
18,Vaini,TO,78.76,light rain,-21.2,-175.2,Keleti Beach Resort
19,Varadero,CU,79.56,clear sky,23.1536,-81.2514,Hotel Tuxpan Varadero
22,Kota Bahru,MY,74.57,broken clouds,6.1333,102.2386,Grand Riverview Hotel
23,Kapaa,US,70.2,overcast clouds,22.0752,-159.319,Sheraton Kauai Coconut Beach Resort
24,Harindanga,IN,71.58,overcast clouds,22.0383,88.3214,Hasanur Builders
28,Marsh Harbour,BS,75.67,clear sky,26.5412,-77.0636,Abaco Beach Resort
30,Sao Gabriel Da Cachoeira,BR,74.75,overcast clouds,-0.1303,-67.0892,Alarne - Área De Lazer Do Alto Rio Negro
32,Isangel,VU,80.94,overcast clouds,-19.55,169.2667,Tanna Lodge
38,Puerto Narino,CO,89.55,overcast clouds,-3.7703,-70.3831,Eware Refugio Amazonico
40,Bambous Virieux,MU,78.22,scattered clouds,-20.3428,57.7575,Casa Tia Villa
42,Brownsville,US,84.31,clear sky,25.9018,-97.4975,University Inn & Suites
44,Saint-Philippe,RE,78.35,scattered clouds,-21.3585,55.7679,"Chambres d'hôte ""La Trinité"""
45,Samarai,PG,81.61,overcast clouds,-10.6167,150.6667,Nuli Sapi
46,Nata,PA,83.43,broken clouds,8.3333,-80.5167,Rey David
48,Hithadhoo,MV,81.16,broken clouds,-0.6,73.0833,Scoop Guest House
49,Adrar,MR,67.66,broken clouds,20.5022,-10.0711,
53,Port Alfred,ZA,67.95,light rain,-33.5906,26.891,The Halyards Hotel
58,Rikitea,PF,75.99,few clouds,-23.1203,-134.9692,People ThankYou
59,Castro,BR,74.62,scattered clouds,-24.7911,-50.0119,CHACARA BAILLY
64,Arraial Do Cabo,BR,76.86,scattered clouds,-22.9661,-42.0278,Pousada Porto Praia
66,Merauke,ID,79.88,light rain,-8.4667,140.3333,
71,Cape Town,ZA,65.12,moderate rain,-33.9258,18.4232,Southern Sun Waterfront Cape Town
73,Rincon,US,75.65,overcast clouds,32.296,-81.2354,Days Inn Rincon
75,Yarada,IN,75.52,broken clouds,17.65,83.2667,Vishranti
76,Kavieng,PG,82.36,moderate rain,-2.5744,150.7967,Nusa Island Retreat
77,Poso,ID,79.32,overcast clouds,-1.3959,120.7524,Hotel 77 Poso
79,East London,ZA,68.18,light rain,-33.0153,27.9116,Tu Casa
81,Kaeo,NZ,70.32,overcast clouds,-35.1,173.7833,Bushido Lodge
83,Hilo,US,73.27,light rain,19.7297,-155.09,Hilo Hawaiian Hotel
84,Saint-Joseph,RE,77.36,few clouds,-21.3667,55.6167,"""Plantation Bed and Breakfast"
88,Manono,CD,73.0,few clouds,-7.3,27.4167,Hotel hewa bora
94,Bandundu,CD,72.9,overcast clouds,-3.3167,17.3667,Coja Color
99,Nisia Floresta,BR,83.21,broken clouds,-6.0911,-35.2086,Rancho Crepusculo
100,Carnarvon,AU,69.87,clear sky,-24.8667,113.6333,Hospitality Carnarvon
101,Salalah,OM,73.49,clear sky,17.0151,54.0924,"HAMDAN PLAZA HOTEL SALALAH, an HTG Hotel"
102,Mocuba,MZ,80.69,clear sky,-16.8392,36.9856,Phama Lodge
103,Buchanan,LR,80.56,broken clouds,5.8808,-10.0467,Kamaneahn Hotel Inc
106,Huarmey,PE,70.3,overcast clouds,-10.0681,-78.1522,Hotel Miramar
113,Myrtle Beach,US,74.34,broken clouds,33.6891,-78.8867,Bay View Resort Myrtle Beach
114,Meulaboh,ID,75.92,overcast clouds,4.1363,96.1285,Kost Pria
116,Mahebourg,MU,78.26,scattered clouds,-20.4081,57.7,Shandrani Beachcomber Resort & Spa
117,Kunigal,IN,68.43,broken clouds,13.0222,77.0267,New Durga lodge
120,Nouadhibou,MR,66.52,clear sky,20.931,-17.0347,El Medina
122,Luwuk,ID,78.22,overcast clouds,-0.9516,122.7875,Hotel Santika Luwuk
123,Avarua,CK,80.65,broken clouds,-21.2078,-159.775,Paradise Inn
125,Nyimba,ZM,80.11,few clouds,-14.5566,30.8149,Dali Dali Lodge
127,Jos,NG,67.95,overcast clouds,9.9167,8.9,Silk Suites
128,Ponta Do Sol,PT,66.83,overcast clouds,32.6667,-17.1,Hotel do Campo
133,Puerto Escondido,MX,86.41,clear sky,15.85,-97.0667,Aldea del Bazar Hotel and Spa
134,George Town,MY,79.9,few clouds,5.4112,100.3354,Cititel Penang
136,Moron,AR,75.94,broken clouds,-34.6534,-58.6198,Hotel Morón
137,Bathsheba,BB,83.01,few clouds,13.2167,-59.5167,Atlantis Hotel
140,Reporoa,NZ,66.34,overcast clouds,-38.4333,176.35,Reporoa
141,Nelson Bay,AU,70.0,overcast clouds,-32.7167,152.15,Mantra Nelson Bay
142,Kapoeta,SS,84.4,overcast clouds,4.7717,33.5903,Eastgate Hotel
144,Gat,IL,66.4,overcast clouds,31.61,34.7642,OlusHome
149,Padang,ID,77.22,overcast clouds,-0.9492,100.3543,Mercure Padang
150,Karratha,AU,85.23,scattered clouds,-20.7377,116.8463,ibis Styles Karratha
155,Cafelandia,BR,84.33,broken clouds,-21.8025,-49.61,catedral de cafelandia
156,Hualmay,PE,70.27,overcast clouds,-11.0964,-77.6139,Hotel Villa Kitzia Huacho
160,Tual,ID,82.47,moderate rain,-5.6667,132.75,Grand Vilia Hotel
163,Kalmunai,LK,77.52,clear sky,7.4167,81.8167,VS Villa
164,Ippy,CF,78.87,overcast clouds,6.2679,21.2247,
165,Bengkulu,ID,75.85,overcast clouds,-3.8004,102.2655,Grage Hotel Bengkulu
168,Chuy,UY,67.82,overcast clouds,-33.6971,-53.4616,Nuevo Hotel Plaza
173,Lahij,YE,70.9,clear sky,13.1667,44.5833,
178,Djougou,BJ,78.8,overcast clouds,9.7085,1.666,Hotel cathas
180,Aloleng,PH,75.4,broken clouds,16.1307,119.7824,Steve Walden and Emma Sison-Walden Residence
181,Cap Malheureux,MU,78.48,broken clouds,-19.9842,57.6142,Pereybere Hotel & Spa
183,Souillac,MU,78.37,scattered clouds,-20.5167,57.5167,Shanti Maurice Resort & Spa
184,Saint George,US,72.36,clear sky,37.1041,-113.5841,Best Western Plus Abbey Inn
187,Diamantino,BR,83.05,light rain,-14.4086,-56.4461,Hotel Delta
189,Maningrida,AU,82.69,overcast clouds,-12.0667,134.2667,Dhukurrdji Lodge
192,Atambua,ID,73.9,overcast clouds,-9.1061,124.8925,Pastori 1 Jemaat Polycarpus
197,Bubaque,GW,81.66,scattered clouds,11.2833,-15.8333,"Casa Dora, Bubaque"
198,El Retorno,CO,79.0,overcast clouds,2.3302,-72.6276,Hostal la posada de Rita
199,Mareeba,AU,76.44,scattered clouds,-17.0,145.4333,Trinity Plains Tourist Park
200,Mogadishu,SO,80.01,few clouds,2.0371,45.3438,Hotel Juba
201,Wanning,CN,69.12,overcast clouds,18.8003,110.3967,Paradise Hotel
203,Quatre Cocos,MU,78.1,broken clouds,-20.2078,57.7625,Sunrise Attitude Hotel
204,Constitucion,CL,67.59,clear sky,-35.3333,-72.4167,Hotel Boutique Las Azucenas
206,Resistencia,AR,84.09,overcast clouds,-27.4606,-58.9839,Niyat Urban Hotel
207,Dakar,SN,74.28,overcast clouds,14.6937,-17.4441,Redface Studios Meublés
208,Isla Mujeres,MX,80.65,clear sky,21.2311,-86.731,Hotel La Joya Isla Mujeres
210,Atar,MR,75.07,scattered clouds,20.5169,-13.0499,Oumou Elghoura
212,Cam Ranh,VN,73.36,few clouds,11.9214,109.1591,OYO 598 Peony Hotel
215,General Roca,AR,77.4,scattered clouds,-39.0333,-67.5833,Hotel y Casino del Río General Roca
216,Moree,AU,73.42,clear sky,-29.4667,149.85,Molika Springs Motel
218,Jaguarari,BR,68.41,overcast clouds,-10.2639,-40.1958,Hotel Quintal De Casa
220,Itarema,BR,81.18,broken clouds,-2.9248,-39.9167,"Sea Lounge! Bar, Club & Restaurant"
223,Jiwani,PK,76.12,clear sky,25.05,61.7417,Al Mumtaz Transport Jiwani
226,Sao Joao Da Barra,BR,77.09,few clouds,-21.6403,-41.0511,Pousada Porto De Canoas
227,Iguape,BR,73.85,few clouds,-24.7081,-47.5553,Hotel Pousada Nossa Senhora do Carmo
228,Beloha,MG,74.52,clear sky,-25.1667,45.05,
231,Kutum,SD,69.84,clear sky,14.2,24.6667,Dibbo areaمنطقة دبو
232,Catalao,BR,76.03,overcast clouds,-18.1658,-47.9464,Mara Turismo Hotel
234,Dicabisagan,PH,71.6,overcast clouds,17.0818,122.4157,Nancy Montanes Bernardo
242,Capela Do Alto,BR,72.34,few clouds,-23.4706,-47.7347,Pousada Central
244,Ihosy,MG,70.39,clear sky,-22.4,46.1167,Hotely Sariaka
247,Mangai,CD,71.15,overcast clouds,-4.05,19.5333,
251,Porlamar,VE,87.89,broken clouds,10.958,-63.8491,Hotel Bella Vista
253,Cayenne,GF,77.09,overcast clouds,4.9333,-52.3333,Hôtel Le Dronmi
258,Blackwater,AU,77.67,clear sky,-23.5833,148.8833,Blackwater Motor Inn
259,Cidreira,BR,70.68,overcast clouds,-30.1811,-50.2056,Hotel Castelo
260,Miri,MY,75.33,broken clouds,4.4148,114.0089,"Mega Hotel, Miri"
261,Nanakuli,US,76.71,light rain,21.3906,-158.1547,Camp Pālehua
262,Victoria,HK,65.32,overcast clouds,22.2855,114.1577,Mini Hotel Central
263,Itaberaba,BR,74.03,broken clouds,-12.5275,-40.3069,Araújo Hotel
266,Namwala,ZM,77.0,scattered clouds,-15.7504,26.4384,Corner Point Lodge
269,Bandarbeyla,SO,76.53,scattered clouds,9.4942,50.8122,JABIR HOTEL
273,Harper,LR,80.02,clear sky,4.375,-7.7169,Screensaver
274,Emure,NG,77.23,overcast clouds,7.4361,5.4593,St Mary Lodge & Resorts Limited
275,Kapit,MY,73.11,broken clouds,2.0167,112.9333,Hotel Meligai Kapit
277,Gashua,NG,75.31,clear sky,12.871,11.0482,Forte Oil - Old Lorry Park
279,Puerto Ayora,EC,75.16,broken clouds,-0.7393,-90.3518,Finch Bay Galapagos Hotel
280,Butaritari,KI,83.05,few clouds,3.0707,172.7902,Isles Sunset Lodge
282,Talara,PE,74.16,clear sky,-4.5772,-81.2719,Hostal Oro Negro
285,Vao,NC,76.32,broken clouds,-22.6667,167.4833,Hotel Kou-Bugny
286,Touros,BR,83.3,broken clouds,-5.1989,-35.4608,INN NEW HORIZON
287,Mayahi,NE,73.85,broken clouds,13.9553,7.6712,
288,Comodoro Rivadavia,AR,71.46,clear sky,-45.8667,-67.5,Austral Hotel
291,Doha,QA,66.18,clear sky,25.2867,51.5333,Movenpick Hotel Doha
292,Sao Desiderio,BR,71.33,overcast clouds,-12.3633,-44.9733,Hotel azaf
293,Tessalit,ML,68.4,broken clouds,20.1986,1.0114,
295,Sorong,ID,80.04,broken clouds,-0.8833,131.25,Waigo Splash Hotel
296,Nautla,MX,77.85,few clouds,20.2167,-96.7833,Casa Blanca
298,Grand Gaube,MU,78.39,broken clouds,-20.0064,57.6608,Veranda Paul et Virginie Hotel & Spa
299,Pecos,US,69.06,clear sky,31.4229,-103.4932,Knights Inn & Suites Pecos
301,Moyale,KE,67.28,few clouds,3.5167,39.0584,La Tahzan Guest House
303,Progreso,MX,86.11,scattered clouds,21.2833,-89.6667,Playa Linda Hotel
307,Moissala,TD,80.47,broken clouds,8.3404,17.7663,
308,Port Moresby,PG,76.75,light rain,-9.4431,147.1797,Lamana Hotel (Port Moresby)
310,Araouane,ML,70.18,overcast clouds,18.9048,-3.5265,
311,Nova Granada,BR,82.65,scattered clouds,-20.5339,-49.3142,Casa do maikão
313,Cottonwood,US,71.35,clear sky,34.7392,-112.0099,Pines Inn & Suites
314,Santa Isabel,BR,73.4,broken clouds,-23.3156,-46.2214,Chácara Sombra do Altíssimo
315,Cienfuegos,CU,84.34,clear sky,22.1461,-80.4356,Casa Claumar B2BPay
316,Micheweni,TZ,78.75,moderate rain,-4.9667,39.8333,
317,Tamandare,BR,78.64,moderate rain,-8.7597,-35.1047,Pousada 100 Passos
318,Banda Aceh,ID,77.4,scattered clouds,5.5577,95.3222,Sulthan Hotel International
320,San Patricio,US,84.29,scattered clouds,28.017,-97.5169,"Motel 6 Sinton, TX"
322,Manggar,ID,77.47,overcast clouds,-2.8833,108.2667,Guest Hotel
326,Buala,SB,82.04,light rain,-8.145,159.5921,Maringe Lagoon Lodge
327,Lukaya,UG,71.65,light rain,-0.1489,31.8748,lemba salongo
329,Moerai,PF,77.54,light rain,-22.4333,-151.3333,Le Manotel
330,Port Hedland,AU,80.65,broken clouds,-20.3167,118.5667,The Esplanade Hotel
331,Magnolia,US,78.48,broken clouds,33.2671,-93.2393,Budget Inn
332,Taquari,BR,85.32,overcast clouds,-29.7997,-51.8644,Martins Hotel
334,Kuraymah,SD,76.93,clear sky,18.55,31.85,Nubian House
343,Porbandar,IN,74.19,clear sky,21.6422,69.6093,Lords Inn Porbandar
345,Sao Jose Da Coroa Grande,BR,78.89,heavy intensity rain,-8.8978,-35.1478,Crôa Mares Hotel
346,Nuevo Progreso,MX,87.6,clear sky,23.1667,-97.95,Balneario Rio el Paraiso
347,Dom Pedrito,BR,78.96,overcast clouds,-30.9828,-54.6731,Hotel Alexandre
349,Reserva,BR,75.9,broken clouds,-24.6503,-50.8506,Hotel Mavi
351,Dillon,US,74.25,overcast clouds,34.4166,-79.3712,Dillon Express Inn
353,Morant Bay,JM,80.65,overcast clouds,17.8815,-76.4093,Whispering Bamboo Cove Resort
355,Dwarka,IN,75.16,clear sky,22.2394,68.9678,Hotel Narayan Avezika Comfort
356,Pattaya,TH,75.87,overcast clouds,12.9333,100.8833,Avani Pattaya Resort
357,Bac Lieu,VN,68.47,broken clouds,9.285,105.7244,Khách sạn Sài Gòn Bạc Liêu
358,Bharthana,IN,65.21,clear sky,26.7571,79.2248,Teela khushal
362,Inirida,CO,77.61,overcast clouds,3.8653,-67.9239,Fuente del Guania Hotel de Lujo
363,Chimore,BO,83.19,light rain,-16.9833,-65.1333,Bichito
365,Guerrero Negro,MX,69.03,overcast clouds,27.9769,-114.0611,"Casa Laguna, Bed & Breakfast"
366,Acapulco,MX,85.82,clear sky,16.8634,-99.8901,HS Hotsson Smart Acapulco
367,Mpika,ZM,69.53,scattered clouds,-11.8343,31.4529,Melodies Lodge
368,Agadez,NE,65.84,broken clouds,19.75,10.25,
375,Kloulklubed,PW,77.5,overcast clouds,7.0419,134.2556,Storyboard Beach Resort
377,Vangaindrano,MG,74.07,scattered clouds,-23.35,47.6,Hotel Fanilo
378,Chabahar,IR,75.02,clear sky,25.2919,60.643,هتل گدروشیا
381,Abancay,PE,69.98,overcast clouds,-13.6339,-72.8814,Siball Hotel
383,Safaga,EG,72.95,overcast clouds,26.7292,33.9365,Lamar Resort Abu Soma
384,Celestun,MX,79.65,scattered clouds,20.8667,-90.4,Posada Lilia
388,Lorengau,PG,83.86,heavy intensity rain,-2.0226,147.2712,Lorengau Harbourside Hotel
391,Ndende,GA,75.42,overcast clouds,-2.4008,11.3581,
395,Sao Felix Do Xingu,BR,76.91,overcast clouds,-6.6447,-51.995,Rio Xingu Camping
399,Sassandra,CI,79.54,few clouds,4.95,-6.0833,la terrasse
401,Sechura,PE,75.52,scattered clouds,-5.5569,-80.8222,Hospedaje Costa Bella
402,Lompoc,US,65.32,clear sky,34.6391,-120.4579,"Holiday Inn Express Lompoc, an IHG Hotel"
403,Mitu,CO,72.32,overcast clouds,1.1983,-70.1733,
404,Pangoa,PE,83.53,broken clouds,-12.1167,-73.0,
405,Viedma,AR,72.05,scattered clouds,-40.8135,-62.9967,Hotel Cristal
406,Mount Isa,AU,87.57,scattered clouds,-20.7333,139.5,ibis Styles Mt Isa Verona
409,Santa Marta,CO,83.71,broken clouds,11.2408,-74.199,Casa de Isabella
411,Umm Lajj,SA,76.21,clear sky,25.0213,37.2685,Moon light Furnished Units
415,Tucuman,AR,74.1,overcast clouds,-26.8241,-65.2226,Dallas Hotel Tucuman
416,Hervey Bay,AU,76.03,scattered clouds,-25.2986,152.8535,Shelly Bay Resort
418,Dickinson,US,84.42,broken clouds,29.4608,-95.0513,Hampton Inn & Suites Houston/League City
419,Sonoita,MX,77.52,broken clouds,31.85,-112.8333,Hotel Nora
420,Niamey,NE,81.27,clear sky,13.5137,2.1098,Soluxe Hotel Niamey
421,Ternate,ID,78.49,light rain,0.8,127.4,Sahid Bela Ternate Hotel
422,Hambantota,LK,77.76,overcast clouds,6.1241,81.1185,Bungalow 63
423,Villa Carlos Paz,AR,76.28,broken clouds,-31.4241,-64.4978,Monte Carlo
425,Antalaha,MG,76.39,light rain,-14.9003,50.2788,Hotel Vitasoa
427,Rawson,AR,80.55,clear sky,-43.3002,-65.1023,Hosteria Sampedro
431,Sao Filipe,CV,75.79,overcast clouds,14.8961,-24.4956,Hotel Xaguate
432,Christchurch,NZ,73.0,few clouds,-43.5333,172.6333,The George
433,Nokaneng,BW,75.24,overcast clouds,-19.6667,22.2667,
435,Belmonte,BR,77.5,scattered clouds,-15.8631,-38.8828,Pousada Monte Carmelo O Pão
436,Gamba,GA,77.85,overcast clouds,-2.65,10.0,
439,Gigmoto,PH,76.42,overcast clouds,13.7796,124.39,Cj's Travellers Inn
443,Natal,BR,83.05,few clouds,-5.795,-35.2094,Villa Park Hotel | Natal
446,Bowen,AU,78.42,clear sky,-20.0167,148.2333,Castle Motor Lodge Motel
448,Rio Cuarto,AR,70.66,overcast clouds,-33.1307,-64.3499,Grand Hotel Río Cuarto
449,Nosy Varika,MG,74.3,few clouds,-20.5833,48.5333,Hotel Volazara
453,Kieta,PG,82.29,overcast clouds,-6.2167,155.6333,Uruna Bay Retreat
454,Port-Gentil,GA,80.47,overcast clouds,-0.7193,8.7815,Fengshui Residence
455,Neiafu,TO,80.31,light rain,-18.65,-173.9833,Mystic Sands Beachfront Accommodation
456,Puerto Baquerizo Moreno,EC,68.99,broken clouds,-0.9,-89.6,Hotel los Algarrobos
461,Oranjestad,AW,81.1,overcast clouds,12.524,-70.027,Divi Village Golf & Beach Resort
465,San Juan,AR,68.2,overcast clouds,-31.5375,-68.5364,Hotel Provincial
466,Mitsamiouli,KM,81.23,broken clouds,-11.3847,43.2844,Foyer ADM
477,Mmabatho,ZA,65.73,overcast clouds,-25.85,25.6333,Mahikeng Guest Apartments
481,Faranah,GN,77.05,overcast clouds,10.0404,-10.7434,Chez mon oncle
482,Jardim,BR,84.49,overcast clouds,-21.4803,-56.1381,Estancia Hotel - Jardim MS
486,Dinguiraye,GN,76.91,overcast clouds,11.3,-10.7167,
488,Pointe Michel,DM,80.56,broken clouds,15.25,-61.3833,Castle Comfort Lodge Dive Dominica
489,Kirakira,SB,82.74,broken clouds,-10.4544,161.9205,SanBiz Lodge
490,Robertsport,LR,82.45,overcast clouds,6.7533,-11.3686,Kwepunha Retreat
491,Cabo San Lucas,MX,87.51,few clouds,22.8909,-109.9124,Hotel Tesoro Los Cabos
493,Ixtapa,MX,81.63,few clouds,20.7,-105.2,Hotel Plaza Providencia
495,Imbituba,BR,73.81,overcast clouds,-28.24,-48.6703,Praia Hotel Imbituba
496,Manokwari,ID,79.05,light rain,-0.8667,134.0833,Swiss Belhotel Manokwari
497,Vanimo,PG,77.7,light rain,-2.6741,141.3028,Vahmoneh Lodge Vanimo
504,Kavaratti,IN,80.8,scattered clouds,10.5669,72.642,Hotels in Lakshadweep Islands
507,Damietta,EG,65.23,overcast clouds,31.4165,31.8133,SULIMAN INN
508,Alice Springs,AU,74.75,scattered clouds,-23.7,133.8833,Desert Palms Alice Springs
509,Lethem,GY,88.23,broken clouds,3.3803,-59.7968,Savannah Inn
511,Iraucuba,BR,83.93,broken clouds,-3.7461,-39.7833,Hotel Terra da Amizade
512,Valparaiso,CL,82.63,clear sky,-33.0393,-71.6273,Hotel Ultramar
514,Prieska,ZA,67.17,overcast clouds,-29.6641,22.7474,Avenue GuestHouse
516,Malakal,SS,82.49,clear sky,9.5334,31.6605,Nile Palace Hotel
518,San Cristobal,VE,77.18,broken clouds,7.7669,-72.225,Posada Villaven C.A.
520,Kingsport,US,65.84,broken clouds,36.5484,-82.5618,MeadowView Conference Resort & Convention Center
521,Maragogi,BR,78.71,heavy intensity rain,-9.0122,-35.2225,Salinas do Maragogi All Inclusive Resort
524,Pisco,PE,71.65,clear sky,-13.7,-76.2167,Hotel San Isidro Oficial
525,Weligama,LK,77.09,overcast clouds,5.9667,80.4167,Weligama Bay Resort
527,Poum,NC,80.56,clear sky,-20.2333,164.0167,Gîte kajeon
528,Sabang,ID,80.71,broken clouds,5.8933,95.3214,Hotel Citra
529,Lima,PE,73.9,moderate rain,-12.0432,-77.0282,Gran Hotel Bolivar Lima
530,Sompeta,IN,69.78,very heavy rain,18.9333,84.6,Netaji's Home
534,Machico,PT,66.83,scattered clouds,32.7,-16.7667,Dom Pedro Madeira Hotel
535,Basag,PH,71.89,overcast clouds,8.9247,125.6178,Gents Dormitory
537,Malanje,AO,65.93,light rain,-9.5402,16.341,Malanje Hotel
539,Ishigaki,JP,69.55,broken clouds,24.3448,124.1572,Hotel Peace Land Ishigakijima
543,Malpe,IN,78.1,overcast clouds,13.35,74.7167,Hotel Sri Krishna Residency
548,Maceio,BR,81.84,broken clouds,-9.6658,-35.7353,Poutur Pousada
549,Mana,GF,78.39,overcast clouds,5.6592,-53.7767,LE SAMANA
550,Alofi,NU,79.25,light rain,-19.0595,-169.9187,Taloa Heights
551,Adre,TD,74.25,clear sky,13.4667,22.2,
554,Tura,IN,65.7,overcast clouds,25.5198,90.2201,Hotel RIKMAN Continental
555,Bhinmal,IN,67.55,clear sky,25.0,72.25,Jambheswar Bhavan(Gopi Khilery)
557,Suyo,PH,71.46,overcast clouds,16.9762,120.5254,Hannah's Homestay
559,Namibe,AO,70.68,few clouds,-15.1961,12.1522,Hotel Chik Chik Namibe
561,Coahuayana,MX,87.3,scattered clouds,18.7333,-103.6833,El rranchito michuacan de ocampos
562,Bilma,NE,66.6,clear sky,18.6853,12.9164,Expeditions Ténére voyages
563,Nacala,MZ,77.68,few clouds,-14.5428,40.6728,Nacala Plaza Business Design Hotel
564,Hirara,JP,68.47,broken clouds,24.8,125.2833,Hotel Atoll Emerald Miyakojima
565,Yulara,AU,71.44,broken clouds,-25.2406,130.9889,Desert Gardens Hotel - Ayers Rock Resort
570,Emerald,AU,74.34,clear sky,-23.5333,148.1667,The Irish Village
571,Tautira,PF,84.22,light rain,-17.7333,-149.15,Pension Oaoa
573,Praia,CV,73.94,broken clouds,14.9215,-23.5087,LT Aparthotel
574,Coihaique,CL,68.61,few clouds,-45.5752,-72.0662,Diego De Almagro Coyhaique
576,Chacabuco,AR,65.88,overcast clouds,-34.6417,-60.4739,Club de Pesca Caza y Balneario
578,Mangrol,IN,75.52,few clouds,21.1167,70.1167,Hotel The Royal Honours
583,Douentza,ML,77.97,overcast clouds,14.9951,-2.9517,Ogomono Doumbo
585,Arlit,NE,71.87,clear sky,18.7369,7.3853,Case de Passage De la Prefecture
586,Gondanglegi,ID,74.93,light rain,-7.7479,112.0132,pondok pesantren mamba'ul 'ulum selo rejo
587,Tabou,CI,80.51,clear sky,4.423,-7.3528,hotêl doufoulougou
588,Diego De Almagro,CL,82.06,broken clouds,-26.3667,-70.05,hotel luna del desierto
590,Cassilandia,BR,83.8,few clouds,-19.1133,-51.7342,Delirius Motel
592,Norsup,VU,81.61,overcast clouds,-16.0667,167.3833,Nabelchel Bungalows
594,Lazaro Cardenas,MX,83.32,few clouds,17.9583,-102.2,quinta antigua
597,Manutuke,NZ,70.84,overcast clouds,-38.6833,177.9167,Jolly Stockman Hotel
598,Puerto Carreno,CO,89.73,overcast clouds,6.189,-67.4859,Casa Hotel Victoria
599,Pontes E Lacerda,BR,83.12,light rain,-15.2261,-59.3353,Hotel Bressan
600,Abonnema,NG,80.74,light rain,4.7084,6.7931,Corper's Lodge Obonoma
601,Faanui,PF,81.36,few clouds,-16.4833,-151.75,Bora-Bora Pearl Beach Resort & Spa
604,Pangai,TO,79.56,scattered clouds,-19.8,-174.35,Ha'apai Beach Resort
607,Todos Santos,MX,87.01,overcast clouds,23.45,-110.2167,Hotel California Todos Santos
609,Parana,AR,86.31,broken clouds,-31.732,-60.5238,Howard Johnson by Wyndham Plaza Hotel Mayorazgo
610,Kirando,TZ,76.66,clear sky,-7.4167,30.6,Lakeshore Lodge
611,Sangmelima,CM,74.1,overcast clouds,2.9333,11.9833,gamestar hotel
612,Sao Paulo De Olivenca,BR,81.39,overcast clouds,-3.3783,-68.8725,
613,Ataco,CO,84.06,overcast clouds,3.5915,-75.3818,Hotel y Restaurante El Ganadero
616,Pochutla,MX,88.83,clear sky,15.7432,-96.4661,Hotel Posada San Jose
618,Saurimo,AO,66.04,overcast clouds,-9.6608,20.3916,Hotel Kawissa Saurimo
625,Minbu,MM,71.11,overcast clouds,20.1833,94.8833,Pan Tha Tin Guest House - Burmese Only
626,Linguere,SN,84.69,overcast clouds,15.3953,-15.1193,AYO Casablanca
627,Sampit,ID,73.2,overcast clouds,-2.5333,112.95,Aquarius Boutique Hotel Sampit
628,Katobu,ID,75.61,overcast clouds,-4.9408,122.5276,La Ode Husein
630,Callaway,US,74.91,clear sky,30.153,-85.5699,"Holiday Inn Express & Suites Panama City-Tyndall, an IHG Hotel"
632,Nova Olimpia,BR,82.31,overcast clouds,-14.7972,-57.2881,Motel glamour
633,Davila,PH,73.06,broken clouds,18.4726,120.5763,Blue Ridge Beach Resort
634,Kahului,US,76.26,scattered clouds,20.8947,-156.47,Maui Seaside Hotel
639,Manuk Mangkaw,PH,81.72,overcast clouds,4.8,119.85,
642,Panaba,MX,83.1,clear sky,21.2833,-88.2667,Hotel California
644,Sao Lourenco Do Sul,BR,73.45,overcast clouds,-31.3653,-51.9783,Hotel Pousada Verde Água
650,Wakema,MM,70.79,few clouds,16.6,95.1833,AungKaDay Hotel
651,Teseney,ER,79.93,clear sky,15.11,36.6575,Sabrin Hotel
652,Balabac,PH,77.41,overcast clouds,7.9868,117.0645,Sing and Swing Lodge
655,Lumut,MY,76.41,scattered clouds,4.2323,100.6298,"Marina Island Pangkor Resort & Hotel (Suites, Function Rooms and Convention Hall)"
663,Ahuimanu,US,76.46,broken clouds,21.4447,-157.8378,Paradise Bay Resort
665,Maiduguri,NG,75.65,broken clouds,11.8464,13.1603,Kagel Mari Police Station
666,Tacuarembo,UY,82.36,overcast clouds,-31.7333,-55.9833,Complejo San Fructuoso
668,Sinnamary,GF,77.76,light rain,5.3833,-52.95,ALETHEIA Appartement Sinnamary
672,Byron Bay,AU,71.87,broken clouds,-28.65,153.6167,Backpackers Inn
673,Cairns,AU,81.07,scattered clouds,-16.9167,145.7667,Mantra Trilogy Cairns
674,Mbandaka,CD,72.39,light rain,0.0487,18.2603,Guest House Epervier
675,Dumai,ID,73.98,overcast clouds,1.6833,101.45,Grand Zuri Dumai
676,Natchez,US,76.89,overcast clouds,31.5604,-91.4032,Hampton Inn & Suites Natchez
678,Kudahuvadhoo,MV,81.97,few clouds,2.6708,72.8944,Niyama Private Islands Maldives
679,Iralaya,HN,80.06,overcast clouds,15.0,-83.2333,Iglesia morava renovada
682,Mahalapye,BW,78.06,broken clouds,-23.1041,26.8142,Keeme-Nao Hotel
684,Thinadhoo,MV,81.55,overcast clouds,0.5333,72.9333,
685,Masumbwe,TZ,69.8,overcast clouds,-3.6333,32.1833,Ngabanya Logde & Filling Station
686,Betare Oya,CM,76.89,overcast clouds,5.6,14.0833,Auberge Tembina Betaré Oya
691,Santa Cruz Del Sur,CU,84.25,light rain,20.7147,-77.9956,
692,Ahipara,NZ,69.44,broken clouds,-35.1667,173.1667,Ahipara Holiday Park
694,Paciran,ID,77.07,moderate rain,-6.8767,112.3761,Tanjung Kodok Beach Resort
